[{"name":"Mumbai","state":"Maharashtra","lat":"18.975","lon":"72.825833","id":1},{"name":"Delhi","state":"Delhi","lat":"28.666667","lon":"77.216667","id":2},{"name":"Bangalore","state":"Karnataka","lat":"12.983333","lon":"77.583333","id":3},{"name":"Hyderabad","state":"Telangana","lat":"17.375278","lon":"78.474444","id":4},{"name":"Ahmedabad","state":"Gujarat","lat":"23.033333","lon":"72.616667","id":5},{"name":"Chennai","state":"Tamil Nadu","lat":"13.083333","lon":"80.283333","id":6},{"name":"Kolkata","state":"West Bengal","lat":"22.569722","lon":"88.369722","id":7},{"name":"Surat","state":"Gujarat","lat":"20.966667","lon":"72.9","id":8},{"name":"Pune","state":"Maharashtra","lat":"18.533333","lon":"73.866667","id":9},{"name":"Jaipur","state":"Rajasthan","lat":"24.583333","lon":"86.85","id":10},{"name":"Lucknow","state":"Uttar Pradesh","lat":"26.85","lon":"80.916667","id":11},{"name":"Kanpur","state":"Uttar Pradesh","lat":"26.466667","lon":"80.35","id":12},{"name":"Nagpur","state":"Maharashtra","lat":"23.3","lon":"82.3","id":13},{"name":"Indore","state":"Madhya Pradesh","lat":"22.716667","lon":"75.833333","id":14},{"name":"Thane","state":"Maharashtra","lat":"19.2","lon":"72.966667","id":15},{"name":"Bhopal","state":"Madhya Pradesh","lat":"23.266667","lon":"77.4","id":16},{"name":"Visakhapatnam","state":"Andhra Pradesh","lat":"17.7","lon":"83.3","id":17},{"name":"Pimpri-Chinchwad","state":"Maharashtra","lat":"18.6279288","lon":"73.8009829","id":18},{"name":"Patna","state":"Bihar","lat":"23.3","lon":"82.666667","id":19},{"name":"Vadodara","state":"Gujarat","lat":"22.3","lon":"73.2","id":20},{"name":"Ghaziabad","state":"Uttar Pradesh","lat":"28.666667","lon":"77.433333","id":21},{"name":"Ludhiana","state":"Punjab","lat":"30.9","lon":"75.85","id":22},{"name":"Agra","state":"Uttar Pradesh","lat":"27.183333","lon":"78.016667","id":23},{"name":"Nashik","state":"Maharashtra","lat":"20.0110224","lon":"73.7903373","id":24},{"name":"Faridabad","state":"Haryana","lat":"28.433333","lon":"77.316667","id":25},{"name":"Meerut","state":"Uttar Pradesh","lat":"28.983333","lon":"77.7","id":26},{"name":"Rajkot","state":"Gujarat","lat":"25.731111","lon":"75.5925","id":27},{"name":"Kalyan-Dombivali","state":"Maharashtra","lat":"19.235433","lon":"73.129889","id":28},{"name":"Vasai-Virar","state":"Maharashtra","lat":"19.4258788","lon":"72.8224901","id":29},{"name":"Varanasi","state":"Uttar Pradesh","lat":"25.333333","lon":"83","id":30},{"name":"Srinagar","state":"Jammu and Kashmir","lat":"30.216667","lon":"78.783333","id":31},{"name":"Aurangabad","state":"Maharashtra","lat":"26.596","lon":"79.9701","id":32},{"name":"Dhanbad","state":"Jharkhand","lat":"23.8","lon":"86.45","id":33},{"name":"Amritsar","state":"Punjab","lat":"31.633056","lon":"74.865556","id":34},{"name":"Navi Mumbai","state":"Maharashtra","lat":"19.033049","lon":"73.029662","id":35},{"name":"Allahabad","state":"Uttar Pradesh","lat":"25.45","lon":"81.85","id":36},{"name":"Ranchi","state":"Jharkhand","lat":"23.35","lon":"85.333333","id":37},{"name":"Howrah","state":"West Bengal","lat":"22.589167","lon":"88.310278","id":38},{"name":"Coimbatore","state":"Tamil Nadu","lat":"10.9925","lon":"76.961389","id":39},{"name":"Jabalpur","state":"Madhya Pradesh","lat":"23.166667","lon":"79.95","id":40},{"name":"Gwalior","state":"Madhya Pradesh","lat":"26.223611","lon":"78.179167","id":41},{"name":"Vijayawada","state":"Andhra Pradesh","lat":"16.516667","lon":"80.616667","id":42},{"name":"Jodhpur","state":"Rajasthan","lat":"26.286667","lon":"73.03","id":43},{"name":"Madurai","state":"Tamil Nadu","lat":"9.933333","lon":"78.116667","id":44},{"name":"Raipur","state":"Chhattisgarh","lat":"30.316667","lon":"78.1","id":45},{"name":"Kota","state":"Rajasthan","lat":"29.825278","lon":"78.671389","id":46},{"name":"Guwahati","state":"Assam","lat":"26.183333","lon":"91.733333","id":47},{"name":"Chandigarh","state":"Chandigarh","lat":"30.7343","lon":"76.7933","id":48},{"name":"Solapur","state":"Maharashtra","lat":"17.683333","lon":"75.916667","id":49},{"name":"Hubballi-Dharwad","state":"Karnataka","lat":"15.364708","lon":"75.123955","id":50},{"name":"Bareilly","state":"Uttar Pradesh","lat":"28.35","lon":"79.416667","id":51},{"name":"Moradabad","state":"Uttar Pradesh","lat":"28.833333","lon":"78.783333","id":52},{"name":"Mysore","state":"Karnataka","lat":"12.307222","lon":"76.649722","id":53},{"name":"Gurgaon","state":"Haryana","lat":"27.6928","lon":"79.6766","id":54},{"name":"Aligarh","state":"Uttar Pradesh","lat":"27.883333","lon":"78.083333","id":55},{"name":"Jalandhar","state":"Punjab","lat":"23.9","lon":"78.433333","id":56},{"name":"Tiruchirappalli","state":"Tamil Nadu","lat":"10.805","lon":"78.685556","id":57},{"name":"Bhubaneswar","state":"Orissa","lat":"20.233333","lon":"85.833333","id":58},{"name":"Salem","state":"Tamil Nadu","lat":"15.7","lon":"73.916667","id":59},{"name":"Mira-Bhayandar","state":"Maharashtra","lat":"19.295233","lon":"72.854390\t","id":60},{"name":"Warangal","state":"Telangana","lat":"18","lon":"79.583333","id":61},{"name":"Thiruvananthapuram","state":"Kerala","lat":"8.506944","lon":"76.956944","id":62},{"name":"Guntur","state":"Andhra Pradesh","lat":"16.3","lon":"80.45","id":63},{"name":"Bhiwandi","state":"Maharashtra","lat":"19.3","lon":"73.066667","id":64},{"name":"Saharanpur","state":"Uttar Pradesh","lat":"29.966667","lon":"77.55","id":65},{"name":"Gorakhpur","state":"Uttar Pradesh","lat":"26.755","lon":"83.373889","id":66},{"name":"Bikaner","state":"Rajasthan","lat":"28.016667","lon":"73.3","id":67},{"name":"Amravati","state":"Maharashtra","lat":"20.933333","lon":"77.75","id":68},{"name":"Noida","state":"Uttar Pradesh","lat":"28.5726442","lon":"77.3547609","id":69},{"name":"Jamshedpur","state":"Jharkhand","lat":"22.8","lon":"86.183333","id":70},{"name":"Bhilai","state":"Chhattisgarh","lat":"21.216667","lon":"81.433333","id":71},{"name":"Cuttack","state":"Orissa","lat":"20.5","lon":"85.833333","id":72},{"name":"Firozabad","state":"Uttar Pradesh","lat":"27.15","lon":"78.416667","id":73},{"name":"Kochi","state":"Kerala","lat":"9.966667","lon":"76.233333","id":74},{"name":"Bhavnagar","state":"Gujarat","lat":"21.766667","lon":"72.15","id":75},{"name":"Dehradun","state":"Uttarakhand","lat":"30.3255646","lon":"78.0436813","id":76},{"name":"Durgapur","state":"West Bengal","lat":"24.75","lon":"87.733333","id":77},{"name":"Asansol","state":"West Bengal","lat":"24.233333","lon":"87.283333","id":78},{"name":"Nanded","state":"Maharashtra","lat":"19.15","lon":"77.333333","id":79},{"name":"Kolhapur","state":"Maharashtra","lat":"16.7","lon":"74.216667","id":80},{"name":"Ajmer","state":"Rajasthan","lat":"26.45","lon":"74.633333","id":81},{"name":"Gulbarga","state":"Karnataka","lat":"17.333333","lon":"76.833333","id":82},{"name":"Jamnagar","state":"Gujarat","lat":"22.466667","lon":"70.066667","id":83},{"name":"Ujjain","state":"Madhya Pradesh","lat":"23.183333","lon":"75.766667","id":84},{"name":"Loni","state":"Uttar Pradesh","lat":"28.75","lon":"77.283333","id":85},{"name":"Siliguri","state":"West Bengal","lat":"26.716111","lon":"88.423611","id":86},{"name":"Jhansi","state":"Uttar Pradesh","lat":"25.433333","lon":"78.583333","id":87},{"name":"Ulhasnagar","state":"Maharashtra","lat":"19.216667","lon":"73.15","id":88},{"name":"Nellore","state":"Andhra Pradesh","lat":"14.433333","lon":"79.966667","id":89},{"name":"Jammu","state":"Jammu and Kashmir","lat":"32.733333","lon":"74.866667","id":90},{"name":"Sangli-Miraj & Kupwad","state":"Maharashtra","lat":"16.860446","lon":"74.565518","id":91},{"name":"Belgaum","state":"Karnataka","lat":"15.866667","lon":"74.5","id":92},{"name":"Mangalore","state":"Karnataka","lat":"12.863889","lon":"74.835278","id":93},{"name":"Ambattur","state":"Tamil Nadu","lat":"13.076667","lon":"80.088611","id":94},{"name":"Tirunelveli","state":"Tamil Nadu","lat":"8.733333","lon":"77.7","id":95},{"name":"Malegaon","state":"Maharashtra","lat":"20.55","lon":"74.533333","id":96},{"name":"Gaya","state":"Bihar","lat":"24.783333","lon":"85","id":97},{"name":"Jalgaon","state":"Maharashtra","lat":"21.048611","lon":"76.534444","id":98},{"name":"Udaipur","state":"Rajasthan","lat":"26.6978","lon":"79.9216","id":99},{"name":"Maheshtala","state":"West Bengal","lat":"22.508621","lon":"88.2532182","id":100},{"name":"Tirupur","state":"Tamil Nadu","lat":"11.1","lon":"77.35","id":101},{"name":"Davanagere","state":"Karnataka","lat":"14.4596984","lon":"75.9289654951128","id":102},{"name":"Kozhikode","state":"Kerala","lat":"11.25","lon":"75.766667","id":103},{"name":"Akola","state":"Maharashtra","lat":"24.766667","lon":"74.2","id":104},{"name":"Kurnool","state":"Andhra Pradesh","lat":"15.833333","lon":"78.05","id":105},{"name":"Rajpur Sonarpur","state":"West Bengal","lat":"22.449089","lon":"88.391473","id":106},{"name":"Bokaro","state":"Jharkhand","lat":"23.783333","lon":"85.966667","id":107},{"name":"South Dumdum","state":"West Bengal","lat":"22.610000","lon":"88.400000","id":108},{"name":"Bellary","state":"Karnataka","lat":"15.15","lon":"76.933333","id":109},{"name":"Patiala","state":"Punjab","lat":"30.326667","lon":"76.400278","id":110},{"name":"Gopalpur","state":"West Bengal","lat":"24.833333","lon":"87.8","id":111},{"name":"Agartala","state":"Tripura","lat":"23.836389","lon":"91.275","id":112},{"name":"Bhagalpur","state":"Bihar","lat":"26.169722","lon":"83.872778","id":113},{"name":"Muzaffarnagar","state":"Uttar Pradesh","lat":"29.466667","lon":"77.683333","id":114},{"name":"Bhatpara","state":"West Bengal","lat":"22.871389","lon":"88.408889","id":115},{"name":"Panihati","state":"West Bengal","lat":"22.694167","lon":"88.374444","id":116},{"name":"Latur","state":"Maharashtra","lat":"18.4","lon":"76.583333","id":117},{"name":"Dhule","state":"Maharashtra","lat":"20.9","lon":"74.783333","id":118},{"name":"Rohtak","state":"Haryana","lat":"28.9","lon":"76.566667","id":119},{"name":"Korba","state":"Chhattisgarh","lat":"22.35","lon":"82.683333","id":120},{"name":"Bhilwara","state":"Rajasthan","lat":"25.35","lon":"74.633333","id":121},{"name":"Brahmapur","state":"Orissa","lat":"19.316667","lon":"84.783333","id":122},{"name":"Muzaffarpur","state":"Bihar","lat":"26.116667","lon":"85.4","id":123},{"name":"Ahmednagar","state":"Maharashtra","lat":"19.083333","lon":"74.733333","id":124},{"name":"Mathura","state":"Uttar Pradesh","lat":"27.5","lon":"77.683333","id":125},{"name":"Kollam","state":"Kerala","lat":"8.880556","lon":"76.591667","id":126},{"name":"Avadi","state":"Tamil Nadu","lat":"13.115556","lon":"80.101667","id":127},{"name":"Rajahmundry","state":"Andhra Pradesh","lat":"16.983333","lon":"81.783333","id":128},{"name":"Kadapa","state":"Andhra Pradesh","lat":"14.466667","lon":"78.816667","id":129},{"name":"Kamarhati","state":"West Bengal","lat":"22.671111","lon":"88.374722","id":130},{"name":"Bilaspur","state":"Chhattisgarh","lat":"22.083333","lon":"82.15","id":131},{"name":"Shahjahanpur","state":"Uttar Pradesh","lat":"27.883333","lon":"79.916667","id":132},{"name":"Bijapur","state":"Karnataka","lat":"18.8","lon":"80.816667","id":133},{"name":"Rampur","state":"Uttar Pradesh","lat":"23.283333","lon":"85.433333","id":134},{"name":"Shivamogga (Shimoga)","state":"Karnataka","lat":"13.929930","lon":"75.568101","id":135},{"name":"Chandrapur","state":"Maharashtra","lat":"19.6","lon":"83.883333","id":136},{"name":"Junagadh","state":"Gujarat","lat":"21.516667","lon":"70.466667","id":137},{"name":"Thrissur","state":"Kerala","lat":"10.516667","lon":"76.216667","id":138},{"name":"Alwar","state":"Rajasthan","lat":"27.566667","lon":"76.6","id":139},{"name":"Bardhaman","state":"West Bengal","lat":"23.240556","lon":"87.869444","id":140},{"name":"Kulti","state":"West Bengal","lat":"23.733333","lon":"86.85","id":141},{"name":"Kakinada","state":"Andhra Pradesh","lat":"16.933333","lon":"82.216667","id":142},{"name":"Nizamabad","state":"Telangana","lat":"26.050556","lon":"83.058889","id":143},{"name":"Parbhani","state":"Maharashtra","lat":"19.266667","lon":"76.783333","id":144},{"name":"Tumkur","state":"Karnataka","lat":"13.342222","lon":"77.101667","id":145},{"name":"Hisar","state":"Haryana","lat":"29.166667","lon":"75.716667","id":146},{"name":"Ozhukarai","state":"Puducherry","lat":"11.948880","lon":"79.712141","id":147},{"name":"Bihar Sharif","state":"Bihar","lat":"25.183333","lon":"85.516667","id":148},{"name":"Panipat","state":"Haryana","lat":"29.388889","lon":"76.968056","id":149},{"name":"Darbhanga","state":"Bihar","lat":"26.166667","lon":"85.9","id":150},{"name":"Bally","state":"West Bengal","lat":"15.166667","lon":"74.033333","id":151},{"name":"Aizawl","state":"Mizoram","lat":"23.724444","lon":"92.7175","id":152},{"name":"Dewas","state":"Madhya Pradesh","lat":"22.966667","lon":"76.066667","id":153},{"name":"Ichalkaranji","state":"Maharashtra","lat":"16.7","lon":"74.466667","id":154},{"name":"Tirupati","state":"Andhra Pradesh","lat":"13.65","lon":"79.416667","id":155},{"name":"Karnal","state":"Haryana","lat":"29.683333","lon":"76.983333","id":156},{"name":"Bathinda","state":"Punjab","lat":"30.2081076","lon":"74.9485371","id":157},{"name":"Jalna","state":"Maharashtra","lat":"24.0988","lon":"79.2137","id":158},{"name":"Barasat","state":"West Bengal","lat":"22.684167","lon":"88.441111","id":159},{"name":"Kirari Suleman Nagar","state":"Delhi","lat":"28.701638","lon":"77.047811","id":160},{"name":"Purnia","state":"Bihar","lat":"24.516667","lon":"87.133333","id":161},{"name":"Satna","state":"Madhya Pradesh","lat":"24.583333","lon":"80.833333","id":162},{"name":"Mau","state":"Uttar Pradesh","lat":"25.941667","lon":"83.561111","id":163},{"name":"Sonipat","state":"Haryana","lat":"28.983333","lon":"77.016667","id":164},{"name":"Farrukhabad","state":"Uttar Pradesh","lat":"27.4","lon":"79.566667","id":165},{"name":"Sagar","state":"Madhya Pradesh","lat":"22.066667","lon":"82","id":166},{"name":"Rourkela","state":"Orissa","lat":"22.2","lon":"84.883333","id":167},{"name":"Durg","state":"Chhattisgarh","lat":"21.183333","lon":"81.283333","id":168},{"name":"Imphal","state":"Manipur","lat":"24.816667","lon":"93.95","id":169},{"name":"Ratlam","state":"Madhya Pradesh","lat":"23.316667","lon":"75.066667","id":170},{"name":"Hapur","state":"Uttar Pradesh","lat":"28.716667","lon":"77.783333","id":171},{"name":"Anantapur","state":"Andhra Pradesh","lat":"26.829","lon":"79.5342","id":172},{"name":"Arrah","state":"Bihar","lat":"25.566667","lon":"84.666667","id":173},{"name":"Karimnagar","state":"Telangana","lat":"27.7974","lon":"79.2581","id":174},{"name":"Etawah","state":"Uttar Pradesh","lat":"26.7769","lon":"79.0239","id":175},{"name":"Ambernath","state":"Maharashtra","lat":"19.2015607","lon":"73.2004771","id":176},{"name":"North Dumdum","state":"West Bengal","lat":"22.652080","lon":"88.419070","id":177},{"name":"Bharatpur","state":"Rajasthan","lat":"27.1268","lon":"79.3921","id":178},{"name":"Begusarai","state":"Bihar","lat":"25.416667","lon":"86.133333","id":179},{"name":"New Delhi","state":"Delhi","lat":"28.6","lon":"77.2","id":180},{"name":"Gandhidham","state":"Gujarat","lat":"23.083333","lon":"70.133333","id":181},{"name":"Baranagar","state":"West Bengal","lat":"22.643333","lon":"88.365278","id":182},{"name":"Tiruvottiyur","state":"Tamil Nadu","lat":"13.157778","lon":"80.304167","id":183},{"name":"Puducherry","state":"Puducherry","lat":"11.93","lon":"79.83","id":184},{"name":"Sikar","state":"Rajasthan","lat":"27.616667","lon":"75.15","id":185},{"name":"Thoothukudi","state":"Tamil Nadu","lat":"8.783333","lon":"78.133333","id":186},{"name":"Rewa","state":"Madhya Pradesh","lat":"27.9161","lon":"79.0231","id":187},{"name":"Mirzapur","state":"Uttar Pradesh","lat":"25.15","lon":"82.583333","id":188},{"name":"Raichur","state":"Karnataka","lat":"16.2","lon":"77.366667","id":189},{"name":"Pali","state":"Rajasthan","lat":"29.85","lon":"78.543889","id":190},{"name":"Khammam","state":"Telangana","lat":"17.25","lon":"80.15","id":191},{"name":"Vizianagaram","state":"Andhra Pradesh","lat":"18.116667","lon":"83.416667","id":192},{"name":"Katihar","state":"Bihar","lat":"25.533333","lon":"87.583333","id":193},{"name":"Haridwar","state":"Uttarakhand","lat":"29.966667","lon":"78.166667","id":194},{"name":"Sri Ganganagar","state":"Rajasthan","lat":"29.916667","lon":"73.883333","id":195},{"name":"Karawal Nagar","state":"Delhi","lat":"28.728310","lon":"77.276926","id":196},{"name":"Nagercoil","state":"Tamil Nadu","lat":"8.193889","lon":"77.431389","id":197},{"name":"Mango","state":"Jharkhand","lat":"13.22526165","lon":"79.1055442299247","id":198},{"name":"Bulandshahr","state":"Uttar Pradesh","lat":"28.4","lon":"77.85","id":199},{"name":"Thanjavur","state":"Tamil Nadu","lat":"10.8","lon":"79.15","id":200}]